[
  {
    "sourceType": "official",
    "userId": null,
    "prefecture": "新潟県",
    "city": "新潟市",
    "location": "新潟県 新潟市 秋葉区田家",
    "latitude": "37.7792490592754",
    "longitude": "139.12962320857795",
    "sightedAt": "2026-01-19T03:50:00.000Z",
    "bearType": "ツキノワグマ",
    "description": "秋葉区田家\n田家集落方面から新津CC方面へ移動 (頭数: 1)",
    "sourceUrl": "https://kumap-xenon.web.app/map?id=91870c84-a9d3-48ee-9ed8-9aae032966ce",
    "imageUrl": null,
    "status": "approved"
  },
  {
    "sourceType": "official",
    "userId": null,
    "prefecture": "新潟県",
    "city": "長岡市",
    "location": "新潟県 長岡市 吉水",
    "latitude": "37.48658369563978",
    "longitude": "139.0160935625104",
    "sightedAt": "2026-01-19T02:20:00.000Z",
    "bearType": "ツキノワグマ",
    "description": "吉水\n市道を行中にクマ１頭を目撃。南方向へ移動していた。 (頭数: 1)",
    "sourceUrl": "https://kumap-xenon.web.app/map?id=d8e80265-8936-4793-8085-3bf4de74e17f",
    "imageUrl": null,
    "status": "approved"
  },
  {
    "sourceType": "official",
    "userId": null,
    "prefecture": "新潟県",
    "city": "新発田市",
    "location": "新潟県 新発田市 滝沢",
    "latitude": "37.871569104328834",
    "longitude": "139.28876633220017",
    "sightedAt": "2026-01-18T23:50:00.000Z",
    "bearType": "ツキノワグマ",
    "description": "滝沢\n五十嵐牧場から南に２００ｍの民家敷地で子グマ１頭を目撃 (頭数: 1)",
    "sourceUrl": "https://kumap-xenon.web.app/map?id=f905844b-d2d0-4edb-a7e3-3c7beffbb212",
    "imageUrl": null,
    "status": "approved"
  },
  {
    "sourceType": "official",
    "userId": null,
    "prefecture": "新潟県",
    "city": "村上市",
    "location": "新潟県 村上市 岩崩",
    "latitude": "38.24159508396035",
    "longitude": "139.63386928864182",
    "sightedAt": "2026-01-18T22:30:00.000Z",
    "bearType": "ツキノワグマ",
    "description": "岩崩\n三面ダム付近で子クマの足跡があった。",
    "sourceUrl": "https://kumap-xenon.web.app/map?id=671e45ce-27c3-4dcc-aa47-00a9163b04f8",
    "imageUrl": null,
    "status": "approved"
  },
  {
    "sourceType": "official",
    "userId": null,
    "prefecture": "新潟県",
    "city": "湯沢町",
    "location": "新潟県 湯沢町 大字湯沢",
    "latitude": "36.93825269643525",
    "longitude": "138.80218057678962",
    "sightedAt": "2026-01-18T11:00:00.000Z",
    "bearType": "ツキノワグマ",
    "description": "大字湯沢\n滝沢公園付近で子クマらしきもの１頭を目撃。西方向に移動していた。 (頭数: 1)",
    "sourceUrl": "https://kumap-xenon.web.app/map?id=fed9faca-058a-4e45-ae1c-87b0ca3e3b4e",
    "imageUrl": null,
    "status": "approved"
  },
  {
    "sourceType": "official",
    "userId": null,
    "prefecture": "埼玉県",
    "city": "秩父市",
    "location": "埼玉県 秩父市 秩父市三峰",
    "latitude": "35.91534045088309",
    "longitude": "138.94394666394385",
    "sightedAt": "2026-01-18T07:00:00.000Z",
    "bearType": "ツキノワグマ",
    "description": "秩父市三峰\n登山者が目撃 (頭数: 1)",
    "sourceUrl": "https://kumap-xenon.web.app/map?id=2faf86bb-60e3-4b3b-9b07-e558a68c0638",
    "imageUrl": null,
    "status": "approved"
  },
  {
    "sourceType": "official",
    "userId": null,
    "prefecture": "新潟県",
    "city": "新発田市",
    "location": "新潟県 新発田市 滝沢",
    "latitude": "37.87015303535775",
    "longitude": "139.28916115454592",
    "sightedAt": "2026-01-18T06:40:00.000Z",
    "bearType": "ツキノワグマ",
    "description": "滝沢\n五十嵐牧場から南に３００ｍの用水池付近で子グマ１頭を目撃 (頭数: 1)",
    "sourceUrl": "https://kumap-xenon.web.app/map?id=35bb8a54-9d40-4ce6-9acc-6208f6bfdddc",
    "imageUrl": null,
    "status": "approved"
  },
  {
    "sourceType": "official",
    "userId": null,
    "prefecture": "新潟県",
    "city": "長岡市",
    "location": "新潟県 長岡市 赤谷",
    "latitude": "37.44658642699188",
    "longitude": "139.01486678004946",
    "sightedAt": "2026-01-18T06:00:00.000Z",
    "bearType": "ツキノワグマ",
    "description": "赤谷\n国道290号線を走行中にクマ1頭を目撃。西方向へ移動した。 (頭数: 1)",
    "sourceUrl": "https://kumap-xenon.web.app/map?id=920d9a74-ba42-401d-a75c-e0bcd375ccaf",
    "imageUrl": null,
    "status": "approved"
  },
  {
    "sourceType": "official",
    "userId": null,
    "prefecture": "新潟県",
    "city": "新発田市",
    "location": "新潟県 新発田市 滝沢",
    "latitude": "37.8713799197658",
    "longitude": "139.2880764675173",
    "sightedAt": "2026-01-18T00:35:00.000Z",
    "bearType": "ツキノワグマ",
    "description": "滝沢\n五十嵐牧場から南西に２００ｍの民家敷地で子グマ１頭を目撃 (頭数: 1)",
    "sourceUrl": "https://kumap-xenon.web.app/map?id=d7933c11-ad9b-43a4-86ca-4483eeae0fc9",
    "imageUrl": null,
    "status": "approved"
  },
  {
    "sourceType": "official",
    "userId": null,
    "prefecture": "群馬県",
    "city": null,
    "location": "群馬県 水沢寺　北西500m付近の山林内",
    "latitude": "36.48387925014678",
    "longitude": "138.94205104480596",
    "sightedAt": "2026-01-17T07:30:00.000Z",
    "bearType": "ツキノワグマ",
    "description": "水沢寺　北西500m付近の山林内\n親1頭、子2頭のクマを山林内で目撃 (頭数: 3, 状態: 子連れ)",
    "sourceUrl": "https://kumap-xenon.web.app/map?id=18c03740-b9e1-4e34-8b5b-c5b126dbd122",
    "imageUrl": null,
    "status": "approved"
  },
  {
    "sourceType": "official",
    "userId": null,
    "prefecture": "新潟県",
    "city": "新発田市",
    "location": "新潟県 新発田市 滝沢",
    "latitude": "37.87179042837572",
    "longitude": "139.2891150647977",
    "sightedAt": "2026-01-17T05:20:00.000Z",
    "bearType": "ツキノワグマ",
    "description": "滝沢\n五十嵐牧場から南に１００ｍの道路付近で子グマ１頭を目撃 (頭数: 1)",
    "sourceUrl": "https://kumap-xenon.web.app/map?id=0656675b-b4aa-42c4-81c5-3e5e9cc6d1de",
    "imageUrl": null,
    "status": "approved"
  },
  {
    "sourceType": "official",
    "userId": null,
    "prefecture": "新潟県",
    "city": "南魚沼市",
    "location": "新潟県 南魚沼市 吉里地内",
    "latitude": "37.049108464317484",
    "longitude": "138.8447332419856",
    "sightedAt": "2026-01-16T23:00:00.000Z",
    "bearType": "ツキノワグマ",
    "description": "吉里地内\n田圃にクマのものと思われる足跡を発見した。",
    "sourceUrl": "https://kumap-xenon.web.app/map?id=c1eda1f1-9d46-4353-8e9e-076f7995db70",
    "imageUrl": null,
    "status": "approved"
  },
  {
    "sourceType": "official",
    "userId": null,
    "prefecture": "栃木県",
    "city": "栃木市",
    "location": "栃木県 栃木市 藤岡町藤岡地内",
    "latitude": "36.257889",
    "longitude": "139.659209",
    "sightedAt": "2026-01-16T23:00:00.000Z",
    "bearType": "ツキノワグマ",
    "description": "クマ１頭　体長約２メートル (頭数: 1, 状態: 成獣)",
    "sourceUrl": "https://kumap-xenon.web.app/map?id=17473e15-320b-4c4a-ab66-c61a548b6016",
    "imageUrl": null,
    "status": "approved"
  },
  {
    "sourceType": "official",
    "userId": null,
    "prefecture": "新潟県",
    "city": "長岡市",
    "location": "新潟県 長岡市 濁沢町",
    "latitude": "37.35748123116779",
    "longitude": "138.8871806843447",
    "sightedAt": "2026-01-16T02:20:00.000Z",
    "bearType": "ツキノワグマ",
    "description": "濁沢町\n養鯉の越冬小屋付近でクマの足跡を発見した。",
    "sourceUrl": "https://kumap-xenon.web.app/map?id=0041c2e6-e864-478c-8e83-d40b473445c8",
    "imageUrl": null,
    "status": "approved"
  },
  {
    "sourceType": "official",
    "userId": null,
    "prefecture": "新潟県",
    "city": "小千谷市",
    "location": "新潟県 小千谷市 東小千谷地区ひ生",
    "latitude": "37.31979",
    "longitude": "138.81755",
    "sightedAt": "2026-01-14T19:30:00.000Z",
    "bearType": "ツキノワグマ",
    "description": "東小千谷地区ひ生\n雪上にクマの足跡を発見した。",
    "sourceUrl": "https://kumap-xenon.web.app/map?id=b6e472e9-9c72-4b2e-96f4-2a0c2716c66c",
    "imageUrl": null,
    "status": "approved"
  },
  {
    "sourceType": "official",
    "userId": null,
    "prefecture": "新潟県",
    "city": "阿賀野市",
    "location": "新潟県 阿賀野市 折居",
    "latitude": "37.85496990086544",
    "longitude": "139.3124628439612",
    "sightedAt": "2026-01-14T03:50:00.000Z",
    "bearType": "ツキノワグマ",
    "description": "折居\n折居地内で小熊１頭を目撃。 (頭数: 1)",
    "sourceUrl": "https://kumap-xenon.web.app/map?id=b08983ec-64cd-404d-84bb-adb90a78e4ea",
    "imageUrl": null,
    "status": "approved"
  },
  {
    "sourceType": "official",
    "userId": null,
    "prefecture": "新潟県",
    "city": "阿賀町",
    "location": "新潟県 阿賀町 新潟県東蒲原郡阿賀町広谷甲（栃堀区）",
    "latitude": "37.605318345617654",
    "longitude": "139.42932533562615",
    "sightedAt": "2026-01-13T06:52:00.000Z",
    "bearType": "ツキノワグマ",
    "description": "新潟県東蒲原郡阿賀町広谷甲（栃堀区）\n家と冬囲いの間に子熊が1頭いた。（現場確認時にはすでに川の方へ移動した後） (頭数: 1)",
    "sourceUrl": "https://kumap-xenon.web.app/map?id=736f7c3b-d5fe-49c7-9746-030587332cd7",
    "imageUrl": null,
    "status": "approved"
  },
  {
    "sourceType": "official",
    "userId": null,
    "prefecture": "新潟県",
    "city": "三条市",
    "location": "新潟県 三条市 上保内",
    "latitude": "37.634381212340706",
    "longitude": "139.01910905111814",
    "sightedAt": "2026-01-12T22:00:00.000Z",
    "bearType": "ツキノワグマ",
    "description": "上保内\n三条地域上保内地内、民家の玄関前にクマの痕跡（足跡）が確認された。",
    "sourceUrl": "https://kumap-xenon.web.app/map?id=bd015522-49cc-4050-9dbf-b677e0f78ca9",
    "imageUrl": null,
    "status": "approved"
  },
  {
    "sourceType": "official",
    "userId": null,
    "prefecture": "新潟県",
    "city": "新発田市",
    "location": "新潟県 新発田市 藤塚浜",
    "latitude": "38.03543895194029",
    "longitude": "139.32426190122126",
    "sightedAt": "2026-01-12T04:30:00.000Z",
    "bearType": "ツキノワグマ",
    "description": "藤塚浜\n五ヶ字運動公園から北西に８００ｍの落堀川付近で子グマ１頭を目撃。 (頭数: 1)",
    "sourceUrl": "https://kumap-xenon.web.app/map?id=bd5bed0f-7997-4440-a294-6188e318c77f",
    "imageUrl": null,
    "status": "approved"
  },
  {
    "sourceType": "official",
    "userId": null,
    "prefecture": "新潟県",
    "city": "長岡市",
    "location": "新潟県 長岡市 乙吉町",
    "latitude": "37.449040127661554",
    "longitude": "138.9040242689215",
    "sightedAt": "2026-01-12T01:50:00.000Z",
    "bearType": "ツキノワグマ",
    "description": "乙吉町\n子熊１頭を目撃。森の方向へ走り去っていった。 (頭数: 1)",
    "sourceUrl": "https://kumap-xenon.web.app/map?id=de516b9c-1514-4ae2-8b0a-4fbe33a31a5a",
    "imageUrl": null,
    "status": "approved"
  },
  {
    "sourceType": "official",
    "userId": null,
    "prefecture": "不明",
    "city": null,
    "location": "不明",
    "latitude": "36.433712974786545",
    "longitude": "138.82932271716737",
    "sightedAt": "2026-01-10T18:00:00.000Z",
    "bearType": "ツキノワグマ",
    "description": "クマの目撃情報 (頭数: 1, 状態: 成獣)",
    "sourceUrl": "https://kumap-xenon.web.app/map?id=aeb54fff-a22c-4dfc-b2b7-2fa51f5c9c25",
    "imageUrl": null,
    "status": "approved"
  },
  {
    "sourceType": "official",
    "userId": null,
    "prefecture": "新潟県",
    "city": "上越市",
    "location": "新潟県 上越市 浦川原区小谷島",
    "latitude": "37.16062054658917",
    "longitude": "138.48208442252113",
    "sightedAt": "2026-01-10T10:44:00.000Z",
    "bearType": "ツキノワグマ",
    "description": "浦川原区小谷島\n小谷島地内から北に100ｍほどの地点を山の方へ移動するクマ１頭を目撃した。 (頭数: 1)",
    "sourceUrl": "https://kumap-xenon.web.app/map?id=6f3b515d-2b1f-4fcd-be08-53bbb448be57",
    "imageUrl": null,
    "status": "approved"
  },
  {
    "sourceType": "official",
    "userId": null,
    "prefecture": "三重県",
    "city": "紀北町",
    "location": "三重県 紀北町 紀北町道瀬地内（山林）",
    "latitude": "34.169983",
    "longitude": "136.289672",
    "sightedAt": "2026-01-10T03:00:00.000Z",
    "bearType": "ツキノワグマ",
    "description": "クマらしき 目視等 紀北町道瀬地内（山林） (頭数: 1)",
    "sourceUrl": "https://kumap-xenon.web.app/map?id=8220f729-674a-4358-a003-98caf0dd333f",
    "imageUrl": null,
    "status": "approved"
  },
  {
    "sourceType": "official",
    "userId": null,
    "prefecture": "三重県",
    "city": "熊野市",
    "location": "三重県 熊野市 熊野市甫母町地内（山林）",
    "latitude": "33.93835599999999",
    "longitude": "136.213903",
    "sightedAt": "2026-01-10T03:00:00.000Z",
    "bearType": "ツキノワグマ",
    "description": "クマらしき 目視等 熊野市甫母町地内（山林） (頭数: 1)",
    "sourceUrl": "https://kumap-xenon.web.app/map?id=df766400-7d8e-410e-8d84-f40790667b1a",
    "imageUrl": null,
    "status": "approved"
  },
  {
    "sourceType": "official",
    "userId": null,
    "prefecture": "新潟県",
    "city": "長岡市",
    "location": "新潟県 長岡市 来伝",
    "latitude": "37.4274900874238",
    "longitude": "139.0041948738478",
    "sightedAt": "2026-01-10T01:00:00.000Z",
    "bearType": "ツキノワグマ",
    "description": "来伝\n下来伝センターの下の田んぼに子熊１頭を目撃。 (頭数: 1)",
    "sourceUrl": "https://kumap-xenon.web.app/map?id=3c989de5-bf7b-4629-bfef-0e3ee5d25623",
    "imageUrl": null,
    "status": "approved"
  },
  {
    "sourceType": "official",
    "userId": null,
    "prefecture": "埼玉県",
    "city": "皆野町",
    "location": "埼玉県 皆野町 皆野町大字皆野　蓑山神社付近",
    "latitude": "36.06419097397138",
    "longitude": "139.10770654674647",
    "sightedAt": "2026-01-09T08:00:00.000Z",
    "bearType": "ツキノワグマ",
    "description": "皆野町大字皆野　蓑山神社付近\n地元住民が目撃 (頭数: 1)",
    "sourceUrl": "https://kumap-xenon.web.app/map?id=9115c419-ea23-41c8-a9d2-bc6a65f1f6f0",
    "imageUrl": null,
    "status": "approved"
  },
  {
    "sourceType": "official",
    "userId": null,
    "prefecture": "三重県",
    "city": "熊野市",
    "location": "三重県 熊野市 熊野市大泊町地内（山林）",
    "latitude": "33.896736",
    "longitude": "136.113365",
    "sightedAt": "2026-01-09T03:00:00.000Z",
    "bearType": "ツキノワグマ",
    "description": "クマらしき 目視等 熊野市大泊町地内（山林） (頭数: 1)",
    "sourceUrl": "https://kumap-xenon.web.app/map?id=f2742edf-5314-4d5f-b98c-479a79597223",
    "imageUrl": null,
    "status": "approved"
  },
  {
    "sourceType": "official",
    "userId": null,
    "prefecture": "静岡県",
    "city": "静岡市清水区",
    "location": "静岡県 静岡市清水区 山切",
    "latitude": "35.06795",
    "longitude": "138.4808679",
    "sightedAt": "2026-01-09T03:00:00.000Z",
    "bearType": "ツキノワグマ",
    "description": "静岡市清水区 山切 (頭数: 1)",
    "sourceUrl": "https://kumap-xenon.web.app/map?id=13748210-315b-4c86-a165-c1cd929d6a18",
    "imageUrl": null,
    "status": "approved"
  },
  {
    "sourceType": "official",
    "userId": null,
    "prefecture": "三重県",
    "city": "熊野市",
    "location": "三重県 熊野市 熊野市大泊町地内（山林）",
    "latitude": "33.896736",
    "longitude": "136.113365",
    "sightedAt": "2026-01-09T03:00:00.000Z",
    "bearType": "ツキノワグマ",
    "description": "クマらしき 目視等 熊野市大泊町地内（山林） (頭数: 1)",
    "sourceUrl": "https://kumap-xenon.web.app/map?id=e7f4dfaa-19ef-4cee-8a41-b8eec87abba2",
    "imageUrl": null,
    "status": "approved"
  },
  {
    "sourceType": "official",
    "userId": null,
    "prefecture": "青森県",
    "city": "三戸町",
    "location": "青森県 三戸町 斗内地区",
    "latitude": "40.3493419",
    "longitude": "141.2027201",
    "sightedAt": "2026-01-09T03:00:00.000Z",
    "bearType": "ツキノワグマ",
    "description": "１頭目撃 (頭数: 1)",
    "sourceUrl": "https://kumap-xenon.web.app/map?id=e46a6f91-d9a2-4227-92a3-70b0433359a4",
    "imageUrl": null,
    "status": "approved"
  },
  {
    "sourceType": "official",
    "userId": null,
    "prefecture": "静岡県",
    "city": "富士宮市",
    "location": "静岡県 富士宮市 佐折",
    "latitude": "35.3185771",
    "longitude": "138.5848531",
    "sightedAt": "2026-01-08T03:00:00.000Z",
    "bearType": "ツキノワグマ",
    "description": "富士宮市 佐折 (頭数: 1)",
    "sourceUrl": "https://kumap-xenon.web.app/map?id=1bf21d87-77f7-4220-8b26-482e5b35bbed",
    "imageUrl": null,
    "status": "approved"
  },
  {
    "sourceType": "official",
    "userId": null,
    "prefecture": "鳥取県",
    "city": "岩美郡",
    "location": "鳥取県 岩美郡 岩美郡岩美町新井",
    "latitude": "35.569658",
    "longitude": "134.331249",
    "sightedAt": "2026-01-07T22:50:00.000Z",
    "bearType": "ツキノワグマ",
    "description": "山に向かって移動しているクマを道路から目撃した (頭数: 1)",
    "sourceUrl": "https://kumap-xenon.web.app/map?id=eabe68cc-8f3c-4af0-9201-b19830f3ec9a",
    "imageUrl": null,
    "status": "approved"
  },
  {
    "sourceType": "official",
    "userId": null,
    "prefecture": "静岡県",
    "city": "函南町",
    "location": "静岡県 函南町 桑原",
    "latitude": "35.1241027",
    "longitude": "139.0380029",
    "sightedAt": "2026-01-07T03:00:00.000Z",
    "bearType": "ツキノワグマ",
    "description": "函南町 桑原 (頭数: 1)",
    "sourceUrl": "https://kumap-xenon.web.app/map?id=e683ef26-2c40-4ee7-9f2c-172627651b1e",
    "imageUrl": null,
    "status": "approved"
  },
  {
    "sourceType": "official",
    "userId": null,
    "prefecture": "新潟県",
    "city": "南魚沼市",
    "location": "新潟県 南魚沼市 万条",
    "latitude": "36.996340209546844",
    "longitude": "138.8304809710692",
    "sightedAt": "2026-01-07T02:50:00.000Z",
    "bearType": "ツキノワグマ",
    "description": "万条\n田圃の中を移動する体長５０ｃｍ程の子クマ１頭を目撃した。 (頭数: 1)",
    "sourceUrl": "https://kumap-xenon.web.app/map?id=4c48f8cd-b41f-4aef-a1e1-853698787629",
    "imageUrl": null,
    "status": "approved"
  },
  {
    "sourceType": "official",
    "userId": null,
    "prefecture": "青森県",
    "city": "八戸市",
    "location": "青森県 八戸市 松館地区",
    "latitude": "40.4667634",
    "longitude": "141.5321773",
    "sightedAt": "2026-01-06T03:00:00.000Z",
    "bearType": "ツキノワグマ",
    "description": "1頭目撃 (頭数: 1)",
    "sourceUrl": "https://kumap-xenon.web.app/map?id=b0e6f2d2-5be3-403f-81c7-077848f97663",
    "imageUrl": null,
    "status": "approved"
  },
  {
    "sourceType": "official",
    "userId": null,
    "prefecture": "静岡県",
    "city": "富士宮市",
    "location": "静岡県 富士宮市 北山",
    "latitude": "35.3043111",
    "longitude": "138.626558",
    "sightedAt": "2026-01-06T03:00:00.000Z",
    "bearType": "ツキノワグマ",
    "description": "富士宮市 北山 (頭数: 1)",
    "sourceUrl": "https://kumap-xenon.web.app/map?id=443ebca7-8018-4fbc-9077-cc88b3e0e44e",
    "imageUrl": null,
    "status": "approved"
  },
  {
    "sourceType": "official",
    "userId": null,
    "prefecture": "静岡県",
    "city": "浜松市浜名区",
    "location": "静岡県 浜松市浜名区 四大地",
    "latitude": "34.8655397",
    "longitude": "137.7515864",
    "sightedAt": "2026-01-06T03:00:00.000Z",
    "bearType": "ツキノワグマ",
    "description": "浜松市浜名区 四大地 (頭数: 1)",
    "sourceUrl": "https://kumap-xenon.web.app/map?id=b6b28cce-9f77-415c-8bc9-aa4ac57a0518",
    "imageUrl": null,
    "status": "approved"
  },
  {
    "sourceType": "official",
    "userId": null,
    "prefecture": "群馬県",
    "city": "桐生市",
    "location": "群馬県 桐生市 黒保根町宿廻（川口）地区集会所より下流の川口川付近",
    "latitude": "36.48813449370615",
    "longitude": "139.2596208952919",
    "sightedAt": "2026-01-05T23:00:00.000Z",
    "bearType": "ツキノワグマ",
    "description": "桐生市黒保根町宿廻（川口）地区集会所より下流の川口川付近\n河川付近で目撃した。 (頭数: 1, 状態: 成獣)",
    "sourceUrl": "https://kumap-xenon.web.app/map?id=28997b4b-dfae-4989-9474-60c2927099e5",
    "imageUrl": null,
    "status": "approved"
  },
  {
    "sourceType": "official",
    "userId": null,
    "prefecture": "青森県",
    "city": "階上町",
    "location": "青森県 階上町 道仏地区",
    "latitude": "40.4690673",
    "longitude": "141.6471361",
    "sightedAt": "2026-01-05T03:00:00.000Z",
    "bearType": "ツキノワグマ",
    "description": "1頭目撃 (頭数: 1)",
    "sourceUrl": "https://kumap-xenon.web.app/map?id=aad6b28a-1f60-4a45-ab6f-b09b6c1ab8e9",
    "imageUrl": null,
    "status": "approved"
  },
  {
    "sourceType": "official",
    "userId": null,
    "prefecture": "山梨県",
    "city": "身延町",
    "location": "山梨県 身延町 光子沢",
    "latitude": "35.321785",
    "longitude": "138.438293",
    "sightedAt": "2026-01-04T23:30:00.000Z",
    "bearType": "ツキノワグマ",
    "description": "身延町 光子沢 (頭数: 1, 状態: 子グマ)",
    "sourceUrl": "https://kumap-xenon.web.app/map?id=2de25dfe-4536-408d-9657-cd22722cc258",
    "imageUrl": null,
    "status": "approved"
  },
  {
    "sourceType": "official",
    "userId": null,
    "prefecture": "新潟県",
    "city": "南魚沼市",
    "location": "新潟県 南魚沼市 下二地内",
    "latitude": "37.12866026612055",
    "longitude": "138.9382577636332",
    "sightedAt": "2026-01-04T08:00:00.000Z",
    "bearType": "ツキノワグマ",
    "description": "下二地内\n住民がクマの足跡を発見した。",
    "sourceUrl": "https://kumap-xenon.web.app/map?id=701a3654-fd11-4157-abdd-415428474af3",
    "imageUrl": null,
    "status": "approved"
  },
  {
    "sourceType": "official",
    "userId": null,
    "prefecture": "新潟県",
    "city": "糸魚川市",
    "location": "新潟県 糸魚川市 大字山口地内",
    "latitude": "36.93581604796862",
    "longitude": "137.89183729781146",
    "sightedAt": "2026-01-04T04:30:00.000Z",
    "bearType": "ツキノワグマ",
    "description": "大字山口地内\n山口地内で山側へ移動するクマ１頭を目撃。 (頭数: 1)",
    "sourceUrl": "https://kumap-xenon.web.app/map?id=913f068a-ca81-41a7-b8d6-7ea235b274a3",
    "imageUrl": null,
    "status": "approved"
  },
  {
    "sourceType": "official",
    "userId": null,
    "prefecture": "新潟県",
    "city": "魚沼市",
    "location": "新潟県 魚沼市 大沢",
    "latitude": "37.223558450863884",
    "longitude": "138.99997794941524",
    "sightedAt": "2026-01-04T01:00:00.000Z",
    "bearType": "ツキノワグマ",
    "description": "大沢\n県道上に子クマを目撃。南側山方向へ移動。 (頭数: 1)",
    "sourceUrl": "https://kumap-xenon.web.app/map?id=3a83745c-c638-46f2-96f8-789d47168707",
    "imageUrl": null,
    "status": "approved"
  },
  {
    "sourceType": "official",
    "userId": null,
    "prefecture": "新潟県",
    "city": "上越市",
    "location": "新潟県 上越市 岩木地内",
    "latitude": "37.13416",
    "longitude": "138.2173",
    "sightedAt": "2026-01-04T00:15:00.000Z",
    "bearType": "ツキノワグマ",
    "description": "岩木地内\n岩木地内で体長70センチメートルほどのクマ1頭を目撃。 (頭数: 1)",
    "sourceUrl": "https://kumap-xenon.web.app/map?id=cf3abc58-5bc2-45b9-aa69-826cc6e6e2c2",
    "imageUrl": null,
    "status": "approved"
  },
  {
    "sourceType": "official",
    "userId": null,
    "prefecture": "新潟県",
    "city": "関川村",
    "location": "新潟県 関川村 安角",
    "latitude": "38.04966628281694",
    "longitude": "139.56686548643574",
    "sightedAt": "2026-01-03T03:10:00.000Z",
    "bearType": "ツキノワグマ",
    "description": "安角\n付近通行者から小熊１頭の目撃情報。クマは東側の山林へ移動した模様。 (頭数: 1)",
    "sourceUrl": "https://kumap-xenon.web.app/map?id=37b5bf87-e47a-4d33-90bf-080eab94d77a",
    "imageUrl": null,
    "status": "approved"
  },
  {
    "sourceType": "official",
    "userId": null,
    "prefecture": "静岡県",
    "city": "静岡市葵区",
    "location": "静岡県 静岡市葵区 平山",
    "latitude": "35.0893151",
    "longitude": "138.4044919",
    "sightedAt": "2026-01-03T03:00:00.000Z",
    "bearType": "ツキノワグマ",
    "description": "静岡市葵区 平山 (頭数: 1)",
    "sourceUrl": "https://kumap-xenon.web.app/map?id=41ec81c7-c85e-4e8f-8a24-f564ee9b9a63",
    "imageUrl": null,
    "status": "approved"
  },
  {
    "sourceType": "official",
    "userId": null,
    "prefecture": "新潟県",
    "city": "魚沼市",
    "location": "新潟県 魚沼市 下倉新田",
    "latitude": "37.255173618809025",
    "longitude": "138.96401147467685",
    "sightedAt": "2026-01-02T22:30:00.000Z",
    "bearType": "ツキノワグマ",
    "description": "下倉新田\n住宅周辺にクマの足跡を発見",
    "sourceUrl": "https://kumap-xenon.web.app/map?id=7194e5be-f8c1-47aa-bccc-2c68bf0fd1ce",
    "imageUrl": null,
    "status": "approved"
  },
  {
    "sourceType": "official",
    "userId": null,
    "prefecture": "群馬県",
    "city": "渋川市",
    "location": "群馬県 渋川市 川島地内（上の山バス停南西100m付近の畑）",
    "latitude": "36.53001376693266",
    "longitude": "138.9634688136724",
    "sightedAt": "2026-01-01T21:45:00.000Z",
    "bearType": "ツキノワグマ",
    "description": "渋川市川島地内（上の山バス停南西100m付近の畑）\n畑から山林内へ移動する親子と思われるクマを目撃 (頭数: 3, 状態: 子連れ)",
    "sourceUrl": "https://kumap-xenon.web.app/map?id=a8222982-eddd-4414-9184-b723e6deec45",
    "imageUrl": null,
    "status": "approved"
  },
  {
    "sourceType": "official",
    "userId": null,
    "prefecture": "山梨県",
    "city": "身延町",
    "location": "山梨県 身延町 一色",
    "latitude": "35.44769",
    "longitude": "138.463269",
    "sightedAt": "2026-01-01T03:00:00.000Z",
    "bearType": "ツキノワグマ",
    "description": "身延町 一色 (頭数: 1, 状態: 成獣)",
    "sourceUrl": "https://kumap-xenon.web.app/map?id=7fd2e7ce-7b71-4a9d-af5f-3b18800bb6f1",
    "imageUrl": null,
    "status": "approved"
  },
  {
    "sourceType": "official",
    "userId": null,
    "prefecture": "群馬県",
    "city": "松井田町",
    "location": "群馬県 松井田町 横川字東地内（上信越自動車道架道橋 上の平橋 南側200ｍ付近）",
    "latitude": "36.336479919753735",
    "longitude": "138.74515750806353",
    "sightedAt": "2026-01-01T00:45:00.000Z",
    "bearType": "ツキノワグマ",
    "description": "松井田町横川字東地内（上信越自動車道架道橋 上の平橋 南側200ｍ付近）\nクマ（成獣1頭）目撃 (頭数: 1, 状態: 成獣)",
    "sourceUrl": "https://kumap-xenon.web.app/map?id=b67366c3-d965-4143-9086-caa573497cea",
    "imageUrl": null,
    "status": "approved"
  },
  {
    "sourceType": "official",
    "userId": null,
    "prefecture": "新潟県",
    "city": "長岡市",
    "location": "新潟県 長岡市 栃堀",
    "latitude": "37.43784810648304",
    "longitude": "139.0369085512835",
    "sightedAt": "2025-12-31T05:00:00.000Z",
    "bearType": "ツキノワグマ",
    "description": "栃堀\n民家に子熊が侵入したもの。 (頭数: 1)",
    "sourceUrl": "https://kumap-xenon.web.app/map?id=bece3cc1-d8f9-4d2a-ae88-9f3259711605",
    "imageUrl": null,
    "status": "approved"
  },
  {
    "sourceType": "official",
    "userId": null,
    "prefecture": "山形県",
    "city": "酒田市",
    "location": "山形県 酒田市 臼ケ沢",
    "latitude": "38.818955",
    "longitude": "139.981043",
    "sightedAt": "2025-12-31T04:07:00.000Z",
    "bearType": "ツキノワグマ",
    "description": "1頭 (頭数: 1)",
    "sourceUrl": "https://kumap-xenon.web.app/map?id=eae9c883-ba95-4ce9-b88f-0bd1732b1b85",
    "imageUrl": null,
    "status": "approved"
  },
  {
    "sourceType": "official",
    "userId": null,
    "prefecture": "静岡県",
    "city": "静岡市葵区",
    "location": "静岡県 静岡市葵区 梅ヶ島",
    "latitude": "35.2670131",
    "longitude": "138.3287475",
    "sightedAt": "2025-12-31T03:00:00.000Z",
    "bearType": "ツキノワグマ",
    "description": "静岡市葵区 梅ヶ島 (頭数: 1)",
    "sourceUrl": "https://kumap-xenon.web.app/map?id=74015730-36a2-4b30-b55c-9ded85ac627a",
    "imageUrl": null,
    "status": "approved"
  },
  {
    "sourceType": "official",
    "userId": null,
    "prefecture": "静岡県",
    "city": "熱海市",
    "location": "静岡県 熱海市 熱海",
    "latitude": "35.1114334",
    "longitude": "139.041236",
    "sightedAt": "2025-12-31T03:00:00.000Z",
    "bearType": "ツキノワグマ",
    "description": "熱海市 熱海 (頭数: 1)",
    "sourceUrl": "https://kumap-xenon.web.app/map?id=59b2bf46-ab63-4a4e-9192-8270c113f575",
    "imageUrl": null,
    "status": "approved"
  },
  {
    "sourceType": "official",
    "userId": null,
    "prefecture": "福島県",
    "city": "喜多方市",
    "location": "福島県 喜多方市",
    "latitude": "37.60827294",
    "longitude": "139.6836911",
    "sightedAt": "2025-12-31T01:39:00.000Z",
    "bearType": "ツキノワグマ",
    "description": "喜多方市 (頭数: 1)",
    "sourceUrl": "https://kumap-xenon.web.app/map?id=9ec53111-ef1e-4adc-904b-064c1bf4c1ee",
    "imageUrl": null,
    "status": "approved"
  },
  {
    "sourceType": "official",
    "userId": null,
    "prefecture": "新潟県",
    "city": "上越市",
    "location": "新潟県 上越市 中郷区市屋",
    "latitude": "36.95974660547656",
    "longitude": "138.21855458552568",
    "sightedAt": "2025-12-31T00:30:00.000Z",
    "bearType": "ツキノワグマ",
    "description": "中郷区市屋\n上信越自動車道を走行中にクマ１頭を目撃。西方向へ移動したいった。 (頭数: 1)",
    "sourceUrl": "https://kumap-xenon.web.app/map?id=36ea8c71-45c0-49e2-95b2-53818f3ba052",
    "imageUrl": null,
    "status": "approved"
  },
  {
    "sourceType": "official",
    "userId": null,
    "prefecture": "新潟県",
    "city": "魚沼市",
    "location": "新潟県 魚沼市 東中",
    "latitude": "37.26159384286033",
    "longitude": "138.9659569180048",
    "sightedAt": "2025-12-31T00:00:00.000Z",
    "bearType": "ツキノワグマ",
    "description": "東中\n足跡を発見。山側へ移動",
    "sourceUrl": "https://kumap-xenon.web.app/map?id=6cee4ab6-70e6-4fd7-b09a-5d0769fda1d0",
    "imageUrl": null,
    "status": "approved"
  },
  {
    "sourceType": "official",
    "userId": null,
    "prefecture": "福島県",
    "city": "喜多方市",
    "location": "福島県 喜多方市",
    "latitude": "37.60791649",
    "longitude": "139.6837634",
    "sightedAt": "2025-12-30T23:50:00.000Z",
    "bearType": "ツキノワグマ",
    "description": "喜多方市 (頭数: 1)",
    "sourceUrl": "https://kumap-xenon.web.app/map?id=e1818c46-8551-4dc6-9058-3f56e52d4e6f",
    "imageUrl": null,
    "status": "approved"
  },
  {
    "sourceType": "official",
    "userId": null,
    "prefecture": "新潟県",
    "city": "魚沼市",
    "location": "新潟県 魚沼市 下倉新田",
    "latitude": "37.25499905392311",
    "longitude": "138.96395155585594",
    "sightedAt": "2025-12-30T22:00:00.000Z",
    "bearType": "ツキノワグマ",
    "description": "下倉新田\n足跡を発見。大沢川方面へ移動",
    "sourceUrl": "https://kumap-xenon.web.app/map?id=e33afeca-8ff0-47bb-9a94-26c8099061cd",
    "imageUrl": null,
    "status": "approved"
  },
  {
    "sourceType": "official",
    "userId": null,
    "prefecture": "山形県",
    "city": "山形市",
    "location": "山形県 山形市 片谷地",
    "latitude": "38.209481",
    "longitude": "140.310289",
    "sightedAt": "2025-12-30T15:40:00.000Z",
    "bearType": "ツキノワグマ",
    "description": "1頭 (頭数: 1)",
    "sourceUrl": "https://kumap-xenon.web.app/map?id=cbc6fd51-27ef-401e-857a-f9976319df75",
    "imageUrl": null,
    "status": "approved"
  },
  {
    "sourceType": "official",
    "userId": null,
    "prefecture": "山形県",
    "city": "酒田市",
    "location": "山形県 酒田市 黒森",
    "latitude": "38.856804",
    "longitude": "139.81572",
    "sightedAt": "2025-12-30T09:50:00.000Z",
    "bearType": "ツキノワグマ",
    "description": "1頭 (頭数: 1)",
    "sourceUrl": "https://kumap-xenon.web.app/map?id=70c88433-4a6c-4095-9f67-a0982d74f10f",
    "imageUrl": null,
    "status": "approved"
  },
  {
    "sourceType": "official",
    "userId": null,
    "prefecture": "青森県",
    "city": "十和田市",
    "location": "青森県 十和田市 法量地区",
    "latitude": "40.589304",
    "longitude": "141.059768",
    "sightedAt": "2025-12-30T03:00:00.000Z",
    "bearType": "ツキノワグマ",
    "description": "１頭目撃 (頭数: 1)",
    "sourceUrl": "https://kumap-xenon.web.app/map?id=e534d0d4-8916-4300-8f4c-0d221033fb48",
    "imageUrl": null,
    "status": "approved"
  },
  {
    "sourceType": "official",
    "userId": null,
    "prefecture": "青森県",
    "city": "八戸市",
    "location": "青森県 八戸市 田面木地区",
    "latitude": "40.4968154",
    "longitude": "141.4429844",
    "sightedAt": "2025-12-30T03:00:00.000Z",
    "bearType": "ツキノワグマ",
    "description": "１頭目撃 (頭数: 1)",
    "sourceUrl": "https://kumap-xenon.web.app/map?id=d6abf924-8ba4-47c9-adc2-1656016c8b1f",
    "imageUrl": null,
    "status": "approved"
  },
  {
    "sourceType": "official",
    "userId": null,
    "prefecture": "青森県",
    "city": "十和田市",
    "location": "青森県 十和田市 法量地区",
    "latitude": "40.589304",
    "longitude": "141.0594688",
    "sightedAt": "2025-12-30T03:00:00.000Z",
    "bearType": "ツキノワグマ",
    "description": "１頭目撃 (頭数: 1)",
    "sourceUrl": "https://kumap-xenon.web.app/map?id=7c17c99f-53e0-4650-bba7-067be6519afe",
    "imageUrl": null,
    "status": "approved"
  },
  {
    "sourceType": "official",
    "userId": null,
    "prefecture": "福島県",
    "city": "白河市",
    "location": "福島県 白河市",
    "latitude": "37.13186872",
    "longitude": "140.2847556",
    "sightedAt": "2025-12-29T07:55:00.000Z",
    "bearType": "ツキノワグマ",
    "description": "白河市 (頭数: 1)",
    "sourceUrl": "https://kumap-xenon.web.app/map?id=caebe07a-d090-4740-9c88-f5b64387b093",
    "imageUrl": null,
    "status": "approved"
  },
  {
    "sourceType": "official",
    "userId": null,
    "prefecture": "山形県",
    "city": "山形市",
    "location": "山形県 山形市 中桜田",
    "latitude": "38.211673",
    "longitude": "140.34136",
    "sightedAt": "2025-12-29T05:35:00.000Z",
    "bearType": "ツキノワグマ",
    "description": "1頭 (頭数: 1)",
    "sourceUrl": "https://kumap-xenon.web.app/map?id=18cba19b-a5bf-4389-a19b-a2de04d11e9a",
    "imageUrl": null,
    "status": "approved"
  },
  {
    "sourceType": "official",
    "userId": null,
    "prefecture": "青森県",
    "city": "むつ市",
    "location": "青森県 むつ市 関根地区",
    "latitude": "41.354105",
    "longitude": "141.17948",
    "sightedAt": "2025-12-29T03:00:00.000Z",
    "bearType": "ツキノワグマ",
    "description": "１頭目撃 (頭数: 1)",
    "sourceUrl": "https://kumap-xenon.web.app/map?id=a05866d0-ae88-40b6-bfd4-335e37e52ccb",
    "imageUrl": null,
    "status": "approved"
  },
  {
    "sourceType": "official",
    "userId": null,
    "prefecture": "福島県",
    "city": "柳津町",
    "location": "福島県 柳津町",
    "latitude": "37.43225773",
    "longitude": "139.7273983",
    "sightedAt": "2025-12-28T21:55:00.000Z",
    "bearType": "ツキノワグマ",
    "description": "柳津町 (頭数: 1)",
    "sourceUrl": "https://kumap-xenon.web.app/map?id=a61681b7-7f62-4627-b9fd-a5440b87cca9",
    "imageUrl": null,
    "status": "approved"
  },
  {
    "sourceType": "official",
    "userId": null,
    "prefecture": "富山県",
    "city": "富山市",
    "location": "富山県 富山市 牛ケ増",
    "latitude": "36.5560442",
    "longitude": "137.2204217",
    "sightedAt": "2025-12-28T15:30:00.000Z",
    "bearType": "ツキノワグマ",
    "description": "0：30　クマ成獣１頭を目撃 (頭数: 1, 状態: 成獣)",
    "sourceUrl": "https://kumap-xenon.web.app/map?id=4ec7c9a6-1428-4ff2-ac88-7d0b1350eec9",
    "imageUrl": null,
    "status": "approved"
  },
  {
    "sourceType": "official",
    "userId": null,
    "prefecture": "群馬県",
    "city": "渋川市",
    "location": "群馬県 渋川市 赤城町津久田（赤城スポーツセンター北東1km付近道路）",
    "latitude": "36.54463213493906",
    "longitude": "139.06029993164833",
    "sightedAt": "2025-12-28T10:50:00.000Z",
    "bearType": "ツキノワグマ",
    "description": "渋川市赤城町津久田（赤城スポーツセンター北東1km付近道路）\n道路から山林内へ移動する子熊と思われる動物を目撃 (頭数: 1, 状態: 成獣)",
    "sourceUrl": "https://kumap-xenon.web.app/map?id=a72b3cf6-7746-4351-9c6a-82cfcd29f368",
    "imageUrl": null,
    "status": "approved"
  },
  {
    "sourceType": "official",
    "userId": null,
    "prefecture": "新潟県",
    "city": "小千谷市",
    "location": "新潟県 小千谷市 東山地区首沢",
    "latitude": "37.33265",
    "longitude": "138.86691",
    "sightedAt": "2025-12-28T07:50:00.000Z",
    "bearType": "ツキノワグマ",
    "description": "東山地区首沢\n自宅敷地内でクマ1頭を目撃。県道551号線を通って北方向へ移動していた。 (頭数: 1)",
    "sourceUrl": "https://kumap-xenon.web.app/map?id=007819d7-6dc5-4dd6-a64a-1f280f3c0102",
    "imageUrl": null,
    "status": "approved"
  },
  {
    "sourceType": "official",
    "userId": null,
    "prefecture": "山形県",
    "city": "鶴岡市",
    "location": "山形県 鶴岡市 大山",
    "latitude": "38.752436",
    "longitude": "139.766187",
    "sightedAt": "2025-12-28T05:20:00.000Z",
    "bearType": "ツキノワグマ",
    "description": "1頭 (頭数: 1)",
    "sourceUrl": "https://kumap-xenon.web.app/map?id=b97cc70c-79bd-4062-a2bd-545b64f499fb",
    "imageUrl": null,
    "status": "approved"
  },
  {
    "sourceType": "official",
    "userId": null,
    "prefecture": "山形県",
    "city": "鶴岡市",
    "location": "山形県 鶴岡市 下川",
    "latitude": "38.770673",
    "longitude": "139.768933",
    "sightedAt": "2025-12-28T00:30:00.000Z",
    "bearType": "ツキノワグマ",
    "description": "1頭 (頭数: 1)",
    "sourceUrl": "https://kumap-xenon.web.app/map?id=a1fb5de4-cc1f-4c42-9cc6-58b3e6b97704",
    "imageUrl": null,
    "status": "approved"
  },
  {
    "sourceType": "official",
    "userId": null,
    "prefecture": "山梨県",
    "city": "早川町",
    "location": "山梨県 早川町 雨畑地内",
    "latitude": "35.419132",
    "longitude": "138.351121",
    "sightedAt": "2025-12-28T00:10:00.000Z",
    "bearType": "ツキノワグマ",
    "description": "早川町 雨畑地内 (頭数: 1, 状態: 成獣)",
    "sourceUrl": "https://kumap-xenon.web.app/map?id=0121b254-fe00-462f-b5ba-e76aef9fc797",
    "imageUrl": null,
    "status": "approved"
  },
  {
    "sourceType": "official",
    "userId": null,
    "prefecture": "山形県",
    "city": "山形市",
    "location": "山形県 山形市 片谷地",
    "latitude": "38.208959",
    "longitude": "140.310246",
    "sightedAt": "2025-12-27T14:08:00.000Z",
    "bearType": "ツキノワグマ",
    "description": "1頭 (頭数: 1)",
    "sourceUrl": "https://kumap-xenon.web.app/map?id=6796e145-28e0-41e8-b95c-b00af7c16a44",
    "imageUrl": null,
    "status": "approved"
  },
  {
    "sourceType": "official",
    "userId": null,
    "prefecture": "富山県",
    "city": "小矢部市",
    "location": "富山県 小矢部市 安楽寺",
    "latitude": "36.6756817",
    "longitude": "136.8363476",
    "sightedAt": "2025-12-27T07:30:00.000Z",
    "bearType": "ツキノワグマ",
    "description": "16：30頃　親子グマ（親１、仔２）が南方向へ移動するのを目撃 (頭数: 2, 状態: 子連れ)",
    "sourceUrl": "https://kumap-xenon.web.app/map?id=38f88eda-0815-4921-b670-364035d81855",
    "imageUrl": null,
    "status": "approved"
  },
  {
    "sourceType": "official",
    "userId": null,
    "prefecture": "静岡県",
    "city": "菊川市",
    "location": "静岡県 菊川市 堀之内",
    "latitude": "34.7655586",
    "longitude": "138.0850322",
    "sightedAt": "2025-12-27T03:00:00.000Z",
    "bearType": "ツキノワグマ",
    "description": "菊川市 堀之内 (頭数: 1)",
    "sourceUrl": "https://kumap-xenon.web.app/map?id=120e7dc4-9f53-457f-8f07-63eac4994344",
    "imageUrl": null,
    "status": "approved"
  },
  {
    "sourceType": "official",
    "userId": null,
    "prefecture": "静岡県",
    "city": "静岡市清水区",
    "location": "静岡県 静岡市清水区 広瀬",
    "latitude": "35.0574424",
    "longitude": "138.4981352",
    "sightedAt": "2025-12-27T03:00:00.000Z",
    "bearType": "ツキノワグマ",
    "description": "静岡市清水区 広瀬 (頭数: 1)",
    "sourceUrl": "https://kumap-xenon.web.app/map?id=2b296502-0264-4cf0-8eea-b7acaab84a27",
    "imageUrl": null,
    "status": "approved"
  },
  {
    "sourceType": "official",
    "userId": null,
    "prefecture": "青森県",
    "city": "南部町",
    "location": "青森県 南部町 埖渡地区",
    "latitude": "40.4326639",
    "longitude": "141.3963963",
    "sightedAt": "2025-12-27T03:00:00.000Z",
    "bearType": "ツキノワグマ",
    "description": "１頭目撃 (頭数: 1)",
    "sourceUrl": "https://kumap-xenon.web.app/map?id=f7b06c33-67ed-4108-be96-543993668f96",
    "imageUrl": null,
    "status": "approved"
  },
  {
    "sourceType": "official",
    "userId": null,
    "prefecture": "静岡県",
    "city": "静岡市葵区",
    "location": "静岡県 静岡市葵区 梅ヶ島",
    "latitude": "35.241797",
    "longitude": "138.3499204",
    "sightedAt": "2025-12-27T03:00:00.000Z",
    "bearType": "ツキノワグマ",
    "description": "静岡市葵区 梅ヶ島 (頭数: 1)",
    "sourceUrl": "https://kumap-xenon.web.app/map?id=9633e298-bb6b-4378-90b5-22d141a4bcef",
    "imageUrl": null,
    "status": "approved"
  },
  {
    "sourceType": "official",
    "userId": null,
    "prefecture": "青森県",
    "city": "むつ市",
    "location": "青森県 むつ市 関根地区",
    "latitude": "41.353827",
    "longitude": "141.179626",
    "sightedAt": "2025-12-27T03:00:00.000Z",
    "bearType": "ツキノワグマ",
    "description": "１頭目撃 (頭数: 1)",
    "sourceUrl": "https://kumap-xenon.web.app/map?id=0043c920-a874-4d10-a126-e5112a05d3d4",
    "imageUrl": null,
    "status": "approved"
  },
  {
    "sourceType": "official",
    "userId": null,
    "prefecture": "福島県",
    "city": "柳津町",
    "location": "福島県 柳津町",
    "latitude": "37.432679",
    "longitude": "139.7278616",
    "sightedAt": "2025-12-27T02:30:00.000Z",
    "bearType": "ツキノワグマ",
    "description": "柳津町 (頭数: 1)",
    "sourceUrl": "https://kumap-xenon.web.app/map?id=d00a529d-6df7-4741-ad37-a656baeffeb1",
    "imageUrl": null,
    "status": "approved"
  },
  {
    "sourceType": "official",
    "userId": null,
    "prefecture": "山形県",
    "city": "酒田市",
    "location": "山形県 酒田市 成興野",
    "latitude": "38.804353",
    "longitude": "140.007092",
    "sightedAt": "2025-12-26T22:00:00.000Z",
    "bearType": "ツキノワグマ",
    "description": "1頭 (頭数: 1)",
    "sourceUrl": "https://kumap-xenon.web.app/map?id=40038654-6c2f-4dc3-9b59-0661ef0c97b9",
    "imageUrl": null,
    "status": "approved"
  },
  {
    "sourceType": "official",
    "userId": null,
    "prefecture": "埼玉県",
    "city": "秩父市",
    "location": "埼玉県 秩父市 秩父市荒川上田野地内（荒川総合支所より北西に約１５０ｍ付近）",
    "latitude": "35.95846440191081",
    "longitude": "139.02854919429944",
    "sightedAt": "2025-12-26T12:00:00.000Z",
    "bearType": "ツキノワグマ",
    "description": "秩父市荒川上田野地内（荒川総合支所より北西に約１５０ｍ付近）\n地元住民が目撃（クマと思われる動物の目撃） (頭数: 1)",
    "sourceUrl": "https://kumap-xenon.web.app/map?id=132c8e82-bf6e-4de3-8327-64c8e909bd8f",
    "imageUrl": null,
    "status": "approved"
  },
  {
    "sourceType": "official",
    "userId": null,
    "prefecture": "山形県",
    "city": "山形市",
    "location": "山形県 山形市 片谷地",
    "latitude": "38.210055",
    "longitude": "140.310289",
    "sightedAt": "2025-12-26T11:26:00.000Z",
    "bearType": "ツキノワグマ",
    "description": "1頭 (頭数: 1)",
    "sourceUrl": "https://kumap-xenon.web.app/map?id=51c52301-4e75-4650-b879-9de576fa688b",
    "imageUrl": null,
    "status": "approved"
  },
  {
    "sourceType": "official",
    "userId": null,
    "prefecture": "福島県",
    "city": "川俣町",
    "location": "福島県 川俣町",
    "latitude": "37.62916431",
    "longitude": "140.5995385",
    "sightedAt": "2025-12-26T06:30:00.000Z",
    "bearType": "ツキノワグマ",
    "description": "川俣町 (頭数: 1)",
    "sourceUrl": "https://kumap-xenon.web.app/map?id=03e75c06-12cf-40f8-a9b2-091c18cfa07d",
    "imageUrl": null,
    "status": "approved"
  },
  {
    "sourceType": "official",
    "userId": null,
    "prefecture": "青森県",
    "city": "鰺ヶ沢町舞戸町",
    "location": "青森県 鰺ヶ沢町舞戸町 地区",
    "latitude": "40.7667993",
    "longitude": "140.2198956",
    "sightedAt": "2025-12-26T03:00:00.000Z",
    "bearType": "ツキノワグマ",
    "description": "１頭目撃 (頭数: 1)",
    "sourceUrl": "https://kumap-xenon.web.app/map?id=31ca44a1-6185-4cd8-af75-48d9fe801cfa",
    "imageUrl": null,
    "status": "approved"
  },
  {
    "sourceType": "official",
    "userId": null,
    "prefecture": "福島県",
    "city": "福島市",
    "location": "福島県 福島市",
    "latitude": "37.65975616",
    "longitude": "140.4714639",
    "sightedAt": "2025-12-26T02:45:00.000Z",
    "bearType": "ツキノワグマ",
    "description": "福島市 (頭数: 1)",
    "sourceUrl": "https://kumap-xenon.web.app/map?id=b4d65c9a-a5ff-48aa-8924-5b87094c830a",
    "imageUrl": null,
    "status": "approved"
  },
  {
    "sourceType": "official",
    "userId": null,
    "prefecture": "新潟県",
    "city": "小千谷市",
    "location": "新潟県 小千谷市 東小千谷地区津山町",
    "latitude": "37.30367",
    "longitude": "138.82079",
    "sightedAt": "2025-12-26T00:00:00.000Z",
    "bearType": "ツキノワグマ",
    "description": "東小千谷地区津山町\n自宅付近の畑でクマの足跡を確認した。",
    "sourceUrl": "https://kumap-xenon.web.app/map?id=d4cad174-aa49-432e-ba28-22519d892e57",
    "imageUrl": null,
    "status": "approved"
  },
  {
    "sourceType": "official",
    "userId": null,
    "prefecture": "群馬県",
    "city": "宮本町",
    "location": "群馬県 宮本町 地内の水道山公園から堤町地内の吾妻山登山道入り口付近",
    "latitude": "36.42106793089371",
    "longitude": "139.33328671655858",
    "sightedAt": "2025-12-25T18:00:00.000Z",
    "bearType": "ツキノワグマ",
    "description": "宮本町地内の水道山公園から堤町地内の吾妻山登山道入り口付近\n12月26日(金)時刻不明、桐生市宮本町地内にある、水道山公園から堤町地内の吾妻山登山道入り口付近にて、クマの様な野生動物を目撃した。\n (頭数: 1, 状態: 成獣)",
    "sourceUrl": "https://kumap-xenon.web.app/map?id=6ba775c4-d7d7-49fa-8e2f-11e66779a5dc",
    "imageUrl": null,
    "status": "approved"
  },
  {
    "sourceType": "official",
    "userId": null,
    "prefecture": "福島県",
    "city": "会津若松市",
    "location": "福島県 会津若松市",
    "latitude": "37.52790745",
    "longitude": "139.9448146",
    "sightedAt": "2025-12-25T11:46:00.000Z",
    "bearType": "ツキノワグマ",
    "description": "会津若松市 (頭数: 1)",
    "sourceUrl": "https://kumap-xenon.web.app/map?id=acdad5bd-c054-498c-9af2-3ba5a90fba17",
    "imageUrl": null,
    "status": "approved"
  },
  {
    "sourceType": "official",
    "userId": null,
    "prefecture": "鳥取県",
    "city": "岩美郡",
    "location": "鳥取県 岩美郡 岩美郡岩美町大谷",
    "latitude": "35.565147",
    "longitude": "134.293592",
    "sightedAt": "2025-12-25T07:00:00.000Z",
    "bearType": "ツキノワグマ",
    "description": "道から少し離れた所で\n子クマが木に登っていた (頭数: 1)",
    "sourceUrl": "https://kumap-xenon.web.app/map?id=aecd984b-4a2d-4006-99b1-098e6daed78b",
    "imageUrl": null,
    "status": "approved"
  },
  {
    "sourceType": "official",
    "userId": null,
    "prefecture": "山形県",
    "city": "飯豊町",
    "location": "山形県 飯豊町 萩生",
    "latitude": "38.065722",
    "longitude": "139.990527",
    "sightedAt": "2025-12-25T04:00:00.000Z",
    "bearType": "ツキノワグマ",
    "description": "1頭 (頭数: 1)",
    "sourceUrl": "https://kumap-xenon.web.app/map?id=b8124f40-cca1-4d4a-8e9e-0abf123006da",
    "imageUrl": null,
    "status": "approved"
  },
  {
    "sourceType": "official",
    "userId": null,
    "prefecture": "新潟県",
    "city": "十日町市",
    "location": "新潟県 十日町市 松代",
    "latitude": "37.13957133707853",
    "longitude": "138.6195841504182",
    "sightedAt": "2025-12-25T01:30:00.000Z",
    "bearType": "ツキノワグマ",
    "description": "松代\n農道カチガ沢線沿いの樹木にクマの木登り跡を発見。",
    "sourceUrl": "https://kumap-xenon.web.app/map?id=591c9f85-b8ab-4a83-8507-20b64cd44e1a",
    "imageUrl": null,
    "status": "approved"
  },
  {
    "sourceType": "official",
    "userId": null,
    "prefecture": "新潟県",
    "city": "魚沼市",
    "location": "新潟県 魚沼市 堀之内",
    "latitude": "37.233012203723156",
    "longitude": "138.91997999600426",
    "sightedAt": "2025-12-24T23:30:00.000Z",
    "bearType": "ツキノワグマ",
    "description": "堀之内\nクマ(体長約70㎝)1頭目撃。南東方向に移動。 (頭数: 1)",
    "sourceUrl": "https://kumap-xenon.web.app/map?id=7b422ee4-8109-4165-8368-a9c620f002e0",
    "imageUrl": null,
    "status": "approved"
  },
  {
    "sourceType": "official",
    "userId": null,
    "prefecture": "山形県",
    "city": "東根市",
    "location": "山形県 東根市 東根乙",
    "latitude": "38.423059",
    "longitude": "140.406076",
    "sightedAt": "2025-12-24T11:05:00.000Z",
    "bearType": "ツキノワグマ",
    "description": "1頭 (頭数: 1)",
    "sourceUrl": "https://kumap-xenon.web.app/map?id=28a428fd-7ab5-4681-aeb2-58196f80abe6",
    "imageUrl": null,
    "status": "approved"
  },
  {
    "sourceType": "official",
    "userId": null,
    "prefecture": "山形県",
    "city": "鶴岡市",
    "location": "山形県 鶴岡市 五十川",
    "latitude": "38.672436",
    "longitude": "139.618193",
    "sightedAt": "2025-12-24T03:15:00.000Z",
    "bearType": "ツキノワグマ",
    "description": "1頭 (頭数: 1)",
    "sourceUrl": "https://kumap-xenon.web.app/map?id=4e3ce15b-c29d-41ec-aaed-8ef8c8197a4f",
    "imageUrl": null,
    "status": "approved"
  },
  {
    "sourceType": "official",
    "userId": null,
    "prefecture": "静岡県",
    "city": "掛川市",
    "location": "静岡県 掛川市 満水",
    "latitude": "34.7739022",
    "longitude": "138.0548631",
    "sightedAt": "2025-12-24T03:00:00.000Z",
    "bearType": "ツキノワグマ",
    "description": "掛川市 満水 (頭数: 1)",
    "sourceUrl": "https://kumap-xenon.web.app/map?id=c046538c-bf92-4df2-8fd5-366550b7a7d1",
    "imageUrl": null,
    "status": "approved"
  },
  {
    "sourceType": "official",
    "userId": null,
    "prefecture": "山形県",
    "city": "真室川町",
    "location": "山形県 真室川町 野々村",
    "latitude": "38.845149",
    "longitude": "140.271764",
    "sightedAt": "2025-12-24T01:40:00.000Z",
    "bearType": "ツキノワグマ",
    "description": "1頭 (頭数: 1)",
    "sourceUrl": "https://kumap-xenon.web.app/map?id=b8c03cf0-cb28-401c-a5ea-0a4c9a7cc121",
    "imageUrl": null,
    "status": "approved"
  },
  {
    "sourceType": "official",
    "userId": null,
    "prefecture": "鳥取県",
    "city": "西伯郡",
    "location": "鳥取県 西伯郡 西伯郡大山町鈑戸",
    "latitude": "35.418554",
    "longitude": "133.503273",
    "sightedAt": "2025-12-23T22:53:00.000Z",
    "bearType": "ツキノワグマ",
    "description": "移動するクマを目撃あけまの森バス停付近で移動するクマを目撃した (頭数: 1)",
    "sourceUrl": "https://kumap-xenon.web.app/map?id=bf51251d-8af5-47c6-8f09-a422051f43b9",
    "imageUrl": null,
    "status": "approved"
  },
  {
    "sourceType": "official",
    "userId": null,
    "prefecture": "山形県",
    "city": "東根市",
    "location": "山形県 東根市 野川",
    "latitude": "38.415863",
    "longitude": "140.438692",
    "sightedAt": "2025-12-23T22:45:00.000Z",
    "bearType": "ツキノワグマ",
    "description": "1頭 (頭数: 1)",
    "sourceUrl": "https://kumap-xenon.web.app/map?id=2ee5f6aa-e185-40fa-b65c-d62fe3410795",
    "imageUrl": null,
    "status": "approved"
  },
  {
    "sourceType": "official",
    "userId": null,
    "prefecture": "山形県",
    "city": "遊佐町",
    "location": "山形県 遊佐町 当山",
    "latitude": "39.043612",
    "longitude": "139.917742",
    "sightedAt": "2025-12-23T22:00:00.000Z",
    "bearType": "ツキノワグマ",
    "description": "1頭 (頭数: 1)",
    "sourceUrl": "https://kumap-xenon.web.app/map?id=074f9017-8d82-4639-b0d3-c18c5193a7da",
    "imageUrl": null,
    "status": "approved"
  },
  {
    "sourceType": "official",
    "userId": null,
    "prefecture": "山形県",
    "city": "遊佐町",
    "location": "山形県 遊佐町 北目",
    "latitude": "39.040645",
    "longitude": "139.90431",
    "sightedAt": "2025-12-23T21:50:00.000Z",
    "bearType": "ツキノワグマ",
    "description": "1頭 (頭数: 1)",
    "sourceUrl": "https://kumap-xenon.web.app/map?id=019c1dc9-afc4-437a-a27a-ee7d90577c75",
    "imageUrl": null,
    "status": "approved"
  },
  {
    "sourceType": "official",
    "userId": null,
    "prefecture": "山形県",
    "city": "遊佐町",
    "location": "山形県 遊佐町 小原田",
    "latitude": "39.014008",
    "longitude": "139.931261",
    "sightedAt": "2025-12-23T21:00:00.000Z",
    "bearType": "ツキノワグマ",
    "description": "1頭 (頭数: 1)",
    "sourceUrl": "https://kumap-xenon.web.app/map?id=d6332a4f-9830-4033-9de6-7ebc30bec5e3",
    "imageUrl": null,
    "status": "approved"
  },
  {
    "sourceType": "official",
    "userId": null,
    "prefecture": "鳥取県",
    "city": "岩美郡",
    "location": "鳥取県 岩美郡 岩美郡岩美町大谷",
    "latitude": "35.565147",
    "longitude": "134.293591",
    "sightedAt": "2025-12-23T07:00:00.000Z",
    "bearType": "ツキノワグマ",
    "description": "県道を通行中、道路から少し離れた木に子グマが登っているのを目撃した (頭数: 1)",
    "sourceUrl": "https://kumap-xenon.web.app/map?id=9214f59d-fc81-4e33-a805-47bf41ca61fe",
    "imageUrl": null,
    "status": "approved"
  },
  {
    "sourceType": "official",
    "userId": null,
    "prefecture": "新潟県",
    "city": "糸魚川市",
    "location": "新潟県 糸魚川市 大字西谷内",
    "latitude": "37.04244423593824",
    "longitude": "137.92110609952474",
    "sightedAt": "2025-12-23T06:00:00.000Z",
    "bearType": "ツキノワグマ",
    "description": "大字西谷内\n敷地内にクマらしき糞を確認",
    "sourceUrl": "https://kumap-xenon.web.app/map?id=97e27db0-77a6-4cdb-84b5-a17a62cbd733",
    "imageUrl": null,
    "status": "approved"
  },
  {
    "sourceType": "official",
    "userId": null,
    "prefecture": "新潟県",
    "city": "南魚沼市",
    "location": "新潟県 南魚沼市 辻又地内",
    "latitude": "37.193728016863176",
    "longitude": "138.86811623156947",
    "sightedAt": "2025-12-23T03:15:00.000Z",
    "bearType": "ツキノワグマ",
    "description": "辻又地内\n事業所付近で体長１．５m程のクマ１頭を目撃した。 (頭数: 1)",
    "sourceUrl": "https://kumap-xenon.web.app/map?id=5cf95a16-1d41-4769-911f-3c377038ba96",
    "imageUrl": null,
    "status": "approved"
  },
  {
    "sourceType": "official",
    "userId": null,
    "prefecture": "静岡県",
    "city": "浜松市天竜区",
    "location": "静岡県 浜松市天竜区 龍山町瀬尻",
    "latitude": "35.0272016",
    "longitude": "137.8440037",
    "sightedAt": "2025-12-23T03:00:00.000Z",
    "bearType": "ツキノワグマ",
    "description": "浜松市天竜区 龍山町瀬尻 (頭数: 1)",
    "sourceUrl": "https://kumap-xenon.web.app/map?id=2a67a026-3ef3-4dbb-9c51-3debc6cc6020",
    "imageUrl": null,
    "status": "approved"
  },
  {
    "sourceType": "official",
    "userId": null,
    "prefecture": "青森県",
    "city": "弘前市",
    "location": "青森県 弘前市 国吉地区",
    "latitude": "40.594335",
    "longitude": "140.352894",
    "sightedAt": "2025-12-23T03:00:00.000Z",
    "bearType": "ツキノワグマ",
    "description": "１頭目撃 (頭数: 1)",
    "sourceUrl": "https://kumap-xenon.web.app/map?id=18835054-3e28-4f45-91b7-3136bb9898e4",
    "imageUrl": null,
    "status": "approved"
  },
  {
    "sourceType": "official",
    "userId": null,
    "prefecture": "静岡県",
    "city": "浜松市天竜区",
    "location": "静岡県 浜松市天竜区 春野町堀之内",
    "latitude": "34.9624706",
    "longitude": "137.8962548",
    "sightedAt": "2025-12-23T03:00:00.000Z",
    "bearType": "ツキノワグマ",
    "description": "浜松市天竜区 春野町堀之内 (頭数: 1)",
    "sourceUrl": "https://kumap-xenon.web.app/map?id=77ce48b0-9ed0-4068-8247-e175888d46f6",
    "imageUrl": null,
    "status": "approved"
  },
  {
    "sourceType": "official",
    "userId": null,
    "prefecture": "青森県",
    "city": "八戸市",
    "location": "青森県 八戸市 河原木地区",
    "latitude": "40.5362448",
    "longitude": "141.4551366",
    "sightedAt": "2025-12-23T03:00:00.000Z",
    "bearType": "ツキノワグマ",
    "description": "１頭目撃 (頭数: 1)",
    "sourceUrl": "https://kumap-xenon.web.app/map?id=10cb1b41-94a7-4a05-b12c-cbe1bd1848b6",
    "imageUrl": null,
    "status": "approved"
  },
  {
    "sourceType": "official",
    "userId": null,
    "prefecture": "鳥取県",
    "city": "岩美郡",
    "location": "鳥取県 岩美郡 岩美郡岩美町大谷",
    "latitude": "35.565147",
    "longitude": "134.293592",
    "sightedAt": "2025-12-23T02:43:00.000Z",
    "bearType": "ツキノワグマ",
    "description": "県道を通行中、道路から少し離れた木に子グマが登っているのを目撃した (頭数: 1)",
    "sourceUrl": "https://kumap-xenon.web.app/map?id=fd98f3d3-b17c-4c37-ad53-de91dfe41cf7",
    "imageUrl": null,
    "status": "approved"
  },
  {
    "sourceType": "official",
    "userId": null,
    "prefecture": "新潟県",
    "city": "胎内市",
    "location": "新潟県 胎内市 黒俣",
    "latitude": "38.04138626415411",
    "longitude": "139.52158398157448",
    "sightedAt": "2025-12-22T22:45:00.000Z",
    "bearType": "ツキノワグマ",
    "description": "黒俣\n付近を通行中に親子のクマ3頭を目撃。山へ向かっていった。 (頭数: 3, 状態: 子連れ)",
    "sourceUrl": "https://kumap-xenon.web.app/map?id=a776bee0-7684-4cb7-9e7a-b8d4fd4755b7",
    "imageUrl": null,
    "status": "approved"
  },
  {
    "sourceType": "official",
    "userId": null,
    "prefecture": "福島県",
    "city": "三春町",
    "location": "福島県 三春町",
    "latitude": "37.46050394",
    "longitude": "140.4900582",
    "sightedAt": "2025-12-22T20:30:00.000Z",
    "bearType": "ツキノワグマ",
    "description": "三春町 (頭数: 1)",
    "sourceUrl": "https://kumap-xenon.web.app/map?id=a79f9e75-ef87-4ce9-9a27-f5cda98b4067",
    "imageUrl": null,
    "status": "approved"
  },
  {
    "sourceType": "official",
    "userId": null,
    "prefecture": "山形県",
    "city": "天童市",
    "location": "山形県 天童市 久野本",
    "latitude": "38.3737",
    "longitude": "140.368748",
    "sightedAt": "2025-12-22T18:10:00.000Z",
    "bearType": "ツキノワグマ",
    "description": "1頭 (頭数: 1)",
    "sourceUrl": "https://kumap-xenon.web.app/map?id=b97fc283-8178-4873-a7ae-157df701806a",
    "imageUrl": null,
    "status": "approved"
  },
  {
    "sourceType": "official",
    "userId": null,
    "prefecture": "埼玉県",
    "city": "皆野町",
    "location": "埼玉県 皆野町 皆野町大字下日野沢　日野沢郵便局付近",
    "latitude": "36.08232527968968",
    "longitude": "139.07631224915653",
    "sightedAt": "2025-12-22T18:00:00.000Z",
    "bearType": "ツキノワグマ",
    "description": "皆野町大字下日野沢　日野沢郵便局付近\n郵便局員が足跡のような痕跡を発見し、役場に連絡した。\n\n出没日は発見日でありいつから痕跡があったかは不明。",
    "sourceUrl": "https://kumap-xenon.web.app/map?id=b8f7c4c3-15e4-46f2-9aec-b7c4da83d6e1",
    "imageUrl": null,
    "status": "approved"
  },
  {
    "sourceType": "official",
    "userId": null,
    "prefecture": "埼玉県",
    "city": "小鹿野町",
    "location": "埼玉県 小鹿野町 小鹿野町両神小森山田大久保",
    "latitude": "36.00648972286695",
    "longitude": "138.9770132407379",
    "sightedAt": "2025-12-22T18:00:00.000Z",
    "bearType": "ツキノワグマ",
    "description": "小鹿野町両神小森山田大久保\n猟友会より報告\n時間については前日の見回り時にはシカはいなかったとのことなので23日夜から24日明け方にかけて被害が発生したと考えております。 (頭数: 1)",
    "sourceUrl": "https://kumap-xenon.web.app/map?id=e218e283-22ca-4225-9999-184aad826d24",
    "imageUrl": null,
    "status": "approved"
  },
  {
    "sourceType": "official",
    "userId": null,
    "prefecture": "山形県",
    "city": "山形市",
    "location": "山形県 山形市 片谷地",
    "latitude": "38.213325",
    "longitude": "140.307542",
    "sightedAt": "2025-12-22T15:30:00.000Z",
    "bearType": "ツキノワグマ",
    "description": "1頭 (頭数: 1)",
    "sourceUrl": "https://kumap-xenon.web.app/map?id=af600e2f-ddda-45b4-8601-157c49a67f92",
    "imageUrl": null,
    "status": "approved"
  },
  {
    "sourceType": "official",
    "userId": null,
    "prefecture": "石川県",
    "city": "加賀市",
    "location": "石川県 加賀市 田尻町地内",
    "latitude": "36.3462498614118",
    "longitude": "136.318357015329",
    "sightedAt": "2025-12-22T12:45:00.000Z",
    "bearType": "ツキノワグマ",
    "description": "加賀市 田尻町地内 田尻町地内でクマ1頭を目撃 (頭数: 1)",
    "sourceUrl": "https://kumap-xenon.web.app/map?id=4f5ce47a-18ed-4278-bf48-d648c4520b96",
    "imageUrl": null,
    "status": "approved"
  },
  {
    "sourceType": "official",
    "userId": null,
    "prefecture": "埼玉県",
    "city": "小鹿野町",
    "location": "埼玉県 小鹿野町 小鹿野町般若天王",
    "latitude": "36.0048471285246",
    "longitude": "139.03191734949476",
    "sightedAt": "2025-12-22T08:20:00.000Z",
    "bearType": "ツキノワグマ",
    "description": "小鹿野町般若天王\n目撃者が警察に連絡 (頭数: 1)",
    "sourceUrl": "https://kumap-xenon.web.app/map?id=8a05dd40-26b7-45b8-ac67-30bc3a5a56bc",
    "imageUrl": null,
    "status": "approved"
  },
  {
    "sourceType": "official",
    "userId": null,
    "prefecture": "山形県",
    "city": "東根市",
    "location": "山形県 東根市 東根甲",
    "latitude": "38.455362",
    "longitude": "140.400712",
    "sightedAt": "2025-12-22T07:30:00.000Z",
    "bearType": "ツキノワグマ",
    "description": "1頭 (頭数: 1)",
    "sourceUrl": "https://kumap-xenon.web.app/map?id=ef2167c8-9d8c-4d9b-8acc-510e020e7fad",
    "imageUrl": null,
    "status": "approved"
  }
]